{
"type": "FeatureCollection",
"features": [
{ "type": "Feature", "properties": { "id": null, "Venue": "The Burl", "Artist": "The Steel Woods", "Location": "The Burl", "Datetime": "2024-07-04", "ArtistLink": "https://www.songkick.com/concerts/41948676-steel-woods-at-burl", "Artist Image": "artist_images/The_Steel_Woods.jpg", "Date": "2024-07-04", "Time": null }, "geometry": { "type": "Point", "coordinates": [ -84.518869778640706, 38.056983944364255 ] } },
{ "type": "Feature", "properties": { "id": null, "Venue": "The Burl", "Artist": "Town Mountain and John R Miller", "Location": "The Burl", "Datetime": "2024-07-06T20:00:00-0500", "ArtistLink": "https://www.songkick.com/concerts/41912553-town-mountain-at-burl", "Artist Image": "artist_images/Town_Mountain_and_John_R_Miller.jpg", "Date": "2024-07-06", "Time": "08:00 PM" }, "geometry": { "type": "Point", "coordinates": [ -84.518869778640706, 38.056983944364255 ] } },
{ "type": "Feature", "properties": { "id": null, "Venue": "The Burl", "Artist": "Jeremy Pinnell and Summer Dean", "Location": "The Burl", "Datetime": "2024-07-11T19:00:00-0500", "ArtistLink": "https://www.songkick.com/concerts/41727409-jeremy-pinnell-at-burl", "Artist Image": "artist_images/Jeremy_Pinnell_and_Summer_Dean.jpg", "Date": "2024-07-11", "Time": "07:00 PM" }, "geometry": { "type": "Point", "coordinates": [ -84.518869778640706, 38.056983944364255 ] } },
{ "type": "Feature", "properties": { "id": null, "Venue": "The Burl", "Artist": "The Stews (US)", "Location": "The Burl", "Datetime": "2024-07-25", "ArtistLink": "https://www.songkick.com/concerts/41799077-stews-us-at-burl", "Artist Image": "artist_images/The_Stews_(US).jpg", "Date": "2024-07-25", "Time": null }, "geometry": { "type": "Point", "coordinates": [ -84.518869778640706, 38.056983944364255 ] } },
{ "type": "Feature", "properties": { "id": null, "Venue": "The Burl", "Artist": "Wilderado", "Location": "The Burl", "Datetime": "2024-07-26T19:00:00-0500", "ArtistLink": "https://www.songkick.com/concerts/41821447-wilderado-at-burl", "Artist Image": "artist_images/Wilderado.jpg", "Date": "2024-07-26", "Time": "07:00 PM" }, "geometry": { "type": "Point", "coordinates": [ -84.518869778640706, 38.056983944364255 ] } },
{ "type": "Feature", "properties": { "id": null, "Venue": "The Burl", "Artist": "Fruit Bats", "Location": "The Burl", "Datetime": "2024-07-27", "ArtistLink": "https://www.songkick.com/concerts/41698871-fruit-bats-at-burl", "Artist Image": "artist_images/Fruit_Bats.jpg", "Date": "2024-07-27", "Time": null }, "geometry": { "type": "Point", "coordinates": [ -84.518869778640706, 38.056983944364255 ] } },
{ "type": "Feature", "properties": { "id": null, "Venue": "The Burl", "Artist": "Old 97's", "Location": "The Burl", "Datetime": "2024-07-31", "ArtistLink": "https://www.songkick.com/concerts/41948675-old-97s-at-burl", "Artist Image": "artist_images/Old_97's.jpg", "Date": "2024-07-31", "Time": null }, "geometry": { "type": "Point", "coordinates": [ -84.518869778640706, 38.056983944364255 ] } },
{ "type": "Feature", "properties": { "id": null, "Venue": "Manchester Music Hall", "Artist": "Del McCoury Band", "Location": "Manchester Music Hall", "Datetime": "2024-07-11T20:00:00-0500", "ArtistLink": "https://www.songkick.com/concerts/41898831-del-mccoury-band-at-manchester-music-hall", "Artist Image": "artist_images/Del_McCoury_Band.jpg", "Date": "2024-07-11", "Time": "08:00 PM" }, "geometry": { "type": "Point", "coordinates": [ -84.50944327121222, 38.053200573369594 ] } },
{ "type": "Feature", "properties": { "id": null, "Venue": "Manchester Music Hall", "Artist": "Kolby Cooper", "Location": "Manchester Music Hall", "Datetime": "2024-07-12T20:00:00-0500", "ArtistLink": "https://www.songkick.com/concerts/41840775-kolby-cooper-at-manchester-music-hall", "Artist Image": "artist_images/Kolby_Cooper.jpg", "Date": "2024-07-12", "Time": "08:00 PM" }, "geometry": { "type": "Point", "coordinates": [ -84.50944327121222, 38.053200573369594 ] } },
{ "type": "Feature", "properties": { "id": null, "Venue": "Manchester Music Hall", "Artist": "Uncle Lucius", "Location": "Manchester Music Hall", "Datetime": "2024-07-16T20:00:00-0500", "ArtistLink": "https://www.songkick.com/concerts/41930439-uncle-lucius-at-manchester-music-hall", "Artist Image": "artist_images/Uncle_Lucius.jpg", "Date": "2024-07-16", "Time": "08:00 PM" }, "geometry": { "type": "Point", "coordinates": [ -84.50944327121222, 38.053200573369594 ] } },
{ "type": "Feature", "properties": { "id": null, "Venue": "Manchester Music Hall", "Artist": "Veil of Maya", "Location": "Manchester Music Hall", "Datetime": "2024-07-20T15:00:00-0500", "ArtistLink": "https://www.songkick.com/concerts/41917527-veil-of-maya-at-manchester-music-hall", "Artist Image": "artist_images/Veil_of_Maya.jpg", "Date": "2024-07-20", "Time": "03:00 PM" }, "geometry": { "type": "Point", "coordinates": [ -84.50944327121222, 38.053200573369594 ] } },
{ "type": "Feature", "properties": { "id": null, "Venue": "Manchester Music Hall", "Artist": "Left To Suffer, Within Destruction, Ten56, and Cabal", "Location": "Manchester Music Hall", "Datetime": "2024-07-20T17:20:00-0500", "ArtistLink": "https://www.songkick.com/concerts/41907394-left-to-suffer-at-manchester-music-hall", "Artist Image": "artist_images/Left_To_Suffer,_Within_Destruction,_Ten56,_and_Cabal.jpg", "Date": "2024-07-20", "Time": "05:20 PM" }, "geometry": { "type": "Point", "coordinates": [ -84.50944327121222, 38.053200573369594 ] } },
{ "type": "Feature", "properties": { "id": null, "Venue": "Manchester Music Hall", "Artist": "Whitey Morgan and the 78's", "Location": "Manchester Music Hall", "Datetime": "2024-07-25T20:00:00-0500", "ArtistLink": "https://www.songkick.com/concerts/42014537-whitey-morgan-and-the-78s-at-manchester-music-hall", "Artist Image": "artist_images/Whitey_Morgan_and_the_78's.jpg", "Date": "2024-07-25", "Time": "08:00 PM" }, "geometry": { "type": "Point", "coordinates": [ -84.50944327121222, 38.053200573369594 ] } },
{ "type": "Feature", "properties": { "id": null, "Venue": "Manchester Music Hall", "Artist": "Beartooth, Currents, and Boundaries", "Location": "Manchester Music Hall", "Datetime": "2024-07-29T18:30:00-0500", "ArtistLink": "https://www.songkick.com/concerts/41934578-beartooth-at-manchester-music-hall", "Artist Image": "artist_images/Beartooth,_Currents,_and_Boundaries.jpg", "Date": "2024-07-29", "Time": "06:30 PM" }, "geometry": { "type": "Point", "coordinates": [ -84.50944327121222, 38.053200573369594 ] } },
{ "type": "Feature", "properties": { "id": null, "Venue": "Al's Bar", "Artist": "Six Foot Blonde", "Location": "Al's Bar", "Datetime": "2024-07-18", "ArtistLink": "https://www.songkick.com/concerts/41848768-six-foot-blonde-at-als-bar", "Artist Image": "artist_images/Six_Foot_Blonde.jpg", "Date": "2024-07-18", "Time": null }, "geometry": { "type": "Point", "coordinates": [ -84.486368617749918, 38.054104284004438 ] } },
{ "type": "Feature", "properties": { "id": null, "Venue": "Al's Bar", "Artist": "Breed (Official)", "Location": "Al's Bar", "Datetime": "2024-07-31T19:00:00-0500", "ArtistLink": "https://www.songkick.com/concerts/42005174-breed-official-at-als-bar", "Artist Image": "artist_images/Breed_(Official).jpg", "Date": "2024-07-31", "Time": "07:00 PM" }, "geometry": { "type": "Point", "coordinates": [ -84.486368617749918, 38.054104284004438 ] } },
{ "type": "Feature", "properties": { "id": null, "Venue": "Lexington Opera House", "Artist": "Ben Folds", "Location": "Lexington Opera House", "Datetime": "2024-07-17T19:30:00-0500", "ArtistLink": "https://www.songkick.com/concerts/41860300-ben-folds-at-lexington-opera-house", "Artist Image": "artist_images/Ben_Folds.jpg", "Date": "2024-07-17", "Time": "07:30 PM" }, "geometry": { "type": "Point", "coordinates": [ -84.49922539418958, 38.050035771358864 ] } },
{ "type": "Feature", "properties": { "id": null, "Venue": "Lexington Opera House", "Artist": "Trey Kennedy", "Location": "Lexington Opera House", "Datetime": "2024-07-18T19:30:00-0500", "ArtistLink": "https://www.songkick.com/concerts/41816919-trey-kennedy-at-lexington-opera-house", "Artist Image": "artist_images/Trey_Kennedy.jpg", "Date": "2024-07-18", "Time": "07:30 PM" }, "geometry": { "type": "Point", "coordinates": [ -84.49922539418958, 38.050035771358864 ] } },
{ "type": "Feature", "properties": { "id": null, "Venue": "Oleika Temple", "Artist": "LEXINGTON REGGAE FEST 2024", "Location": "Oleika Temple", "Datetime": "2024-07-28", "ArtistLink": "https://www.songkick.com/festivals/3670269-lexington-reggae-fest/id/41966163-lexington-reggae-fest-2024", "Artist Image": "artist_images/LEXINGTON_REGGAE_FEST_2024.jpg", "Date": "2024-07-28", "Time": null }, "geometry": { "type": "Point", "coordinates": [ -84.525755691684424, 38.01615208418616 ] } },
{ "type": "Feature", "properties": { "id": null, "Venue": "Slainte Public House", "Artist": "Jen Howard", "Location": "Slainte Public House", "Datetime": "2024-07-07T17:00:00-0500", "ArtistLink": "https://www.songkick.com/concerts/41684503-jen-howard-at-slainte-public-house", "Artist Image": "artist_images/Jen_Howard.jpg", "Date": "2024-07-07", "Time": "05:00 PM" }, "geometry": { "type": "Point", "coordinates": [ -84.556467750410988, 38.209525697511232 ] } },
{ "type": "Feature", "properties": { "id": null, "Venue": "Lake Reba Recreational Complex Park", "Artist": "Tyler Deaver", "Location": "Lake Reba Recreational Complex Park", "Datetime": "2024-07-04T16:00:00-0500", "ArtistLink": "https://www.songkick.com/concerts/42013289-tyler-deaver-at-lake-reba-recreational-complex-park", "Artist Image": "artist_images/Tyler_Deaver.jpg", "Date": "2024-07-04", "Time": "04:00 PM" }, "geometry": { "type": "Point", "coordinates": [ -84.256918903826559, 37.739185366615537 ] } }
]
}
